{
  "data": {
      "trail": {
          "id": "62818",
          "co_id": "810",
          "type": "Trailhead",
          "attributes": {
              "name": "Buffalo (Colorado Trail) Trailhead",
              "latitude": "39.342119",
              "longitude": "-105.335685",
              "bathrooms": "yes"
          }
      },
      "breweries": [
          {
              "type": "micro",
              "id": "mad-jacks-mountain-brewery-bailey",
              "attributes": {
                  "name": "Mad Jack's Mountain Brewery",
                  "street": "23 Main St",
                  "city": "Bailey",
                  "state": "Colorado",
                  "postal_code": "80421",
                  "phone": "3038162337",
                  "longitude": "-105.4774352",
                  "latitude": "39.40651269",
                  "website_url": "http://www.madjacksmountainbrewery.com"
              }
          },
          {
              "type": "contract",
              "id": "acidulous-brewing-company-littleton",
              "attributes": {
                  "name": "Acidulous Brewing Company",
                  "street": "6712 S Independence St",
                  "city": "Littleton",
                  "state": "Colorado",
                  "postal_code": "80128-4046",
                  "phone": "3039952895",
                  "longitude": "-105.1059543",
                  "latitude": "39.5383949",
                  "website_url": null
              }
          },
          {
              "type": "micro",
              "id": "barrel-dog-brewing-evergreen",
              "attributes": {
                  "name": "Barrel Dog Brewing",
                  "street": null,
                  "city": "Evergreen",
                  "state": "Colorado",
                  "postal_code": "80439",
                  "phone": "5599176846",
                  "longitude": "-105.321458",
                  "latitude": "39.6361637",
                  "website_url": null
              }
          },
          {
              "type": "brewpub",
              "id": "lariat-lodge-brewing-evergreen",
              "attributes": {
                  "name": "Lariat Lodge Brewing",
                  "street": "27618 Fireweed Dr",
                  "city": "Evergreen",
                  "state": "Colorado",
                  "postal_code": "80439-8462",
                  "phone": "3036741842",
                  "longitude": "-105.3136925",
                  "latitude": "39.63935145",
                  "website_url": "http://www.LariatLodgeBrewing.com"
              }
          },
          {
              "type": "planning",
              "id": "6-and-40-brewerytaproom-lakewood",
              "attributes": {
                  "name": "6 & 40 Brewery/Taproom",
                  "street": null,
                  "city": "Lakewood",
                  "state": "Colorado",
                  "postal_code": "80215-5548",
                  "phone": "3032325347",
                  "longitude": "-105.1100582",
                  "latitude": "39.6311085",
                  "website_url": "http://www.tomsbrewshop.com"
              }
          }
      ]
  }
}